{"meta":{"code":200,"requestId":"6017e7eed5d2ef5582a3fdbe"},"response":{"suggestedFilters":{"header":"Tap to show:","filters":[{"name":"Open now","key":"openNow"}]},"suggestedRadius":600,"headerLocation":"Piccadilly","headerFullLocation":"Piccadilly, London","headerLocationGranularity":"neighborhood","query":"coffee","totalResults":85,"suggestedBounds":{"ne":{"lat":51.514039219443056,"lng":-0.13064723938505082},"sw":{"lat":51.50717899849875,"lng":-0.1397050152247651}},"groups":[{"type":"Recommended Places","name":"recommended","items":[{"reasons":{"count":0,"items":[{"summary":"This spot is popular","type":"general","reasonName":"globalInteractionReason"}]},"venue":{"id":"5113babbd63e8bb673ce4b25","name":"Carpo Piccadilly","location":{"address":"16 Piccadilly","lat":51.50956385935709,"lng":-0.1355359951960031,"labeledLatLngs":[{"label":"display","lat":51.50956385935709,"lng":-0.1355359951960031}],"distance":135,"postalCode":"W1J 0DE","cc":"GB","city":"London","state":"Greater London","country":"United Kingdom","formattedAddress":["16 Piccadilly","St. James's","Greater London","W1J 0DE","United Kingdom"]},"categories":[{"id":"4bf58dd8d48988d1f5941735","name":"Gourmet Shop","pluralName":"Gourmet Shops","shortName":"Gourmet","icon":{"prefix":"https:\/\/ss3.4sqi.net\/img\/categories_v2\/shops\/food_gourmet_","suffix":".png"},"primary":true}],"photos":{"count":0,"groups":[]},"venuePage":{"id":"72662939"}},"referralId":"e-5-5113babbd63e8bb673ce4b25-0"},{"reasons":{"count":0,"items":[{"summary":"This spot is popular","type":"general","reasonName":"globalInteractionReason"}]},"venue":{"id":"50c070d7e4b06f3d184f48ce","name":"Café Royal Hotel","location":{"address":"68 Regent St","lat":51.51020994158144,"lng":-0.13632388898493164,"labeledLatLngs":[{"label":"display","lat":51.51020994158144,"lng":-0.13632388898493164}],"distance":183,"postalCode":"W1B 4DY","cc":"GB","city":"London","state":"Greater London","country":"United Kingdom","formattedAddress":["68 Regent St","London","Greater London","W1B 4DY","United Kingdom"]},"categories":[{"id":"4bf58dd8d48988d1fa931735","name":"Hotel","pluralName":"Hotels","shortName":"Hotel","icon":{"prefix":"https:\/\/ss3.4sqi.net\/img\/categories_v2\/travel\/hotel_","suffix":".png"},"primary":true}],"photos":{"count":0,"groups":[]}},"referralId":"e-5-50c070d7e4b06f3d184f48ce-1"},{"reasons":{"count":0,"items":[{"summary":"This spot is popular","type":"general","reasonName":"globalInteractionReason"}]},"venue":{"id":"4f182f1aa17c202e1058990c","name":"Rapha Cycle Club","location":{"address":"85 Brewer St","lat":51.510841946803126,"lng":-0.1367040766189636,"labeledLatLngs":[{"label":"display","lat":51.510841946803126,"lng":-0.1367040766189636}],"distance":229,"postalCode":"W1F 9ZN","cc":"GB","city":"London","state":"Greater London","country":"United Kingdom","formattedAddress":["85 Brewer St","London","Greater London","W1F 9ZN","United Kingdom"]},"categories":[{"id":"4bf58dd8d48988d115951735","name":"Bike Shop","pluralName":"Bike Shops","shortName":"Bike Shop","icon":{"prefix":"https:\/\/ss3.4sqi.net\/img\/categories_v2\/shops\/bikeshop_","suffix":".png"},"primary":true}],"photos":{"count":0,"groups":[]}},"referralId":"e-5-4f182f1aa17c202e1058990c-2"},{"reasons":{"count":0,"items":[{"summary":"This spot is popular","type":"general","reasonName":"globalInteractionReason"}]},"venue":{"id":"53334a5d498e210026ea532c","name":"Oscar Wilde Bar","location":{"address":"68 Regent St","lat":51.51039936827954,"lng":-0.13596769674320588,"labeledLatLngs":[{"label":"display","lat":51.51039936827954,"lng":-0.13596769674320588}],"distance":163,"postalCode":"W1B 4DY","cc":"GB","city":"London","state":"Greater London","country":"United Kingdom","formattedAddress":["68 Regent St","London","Greater London","W1B 4DY","United Kingdom"]},"categories":[{"id":"4bf58dd8d48988d1dc931735","name":"Tea Room","pluralName":"Tea Rooms","shortName":"Tea Room","icon":{"prefix":"https:\/\/ss3.4sqi.net\/img\/categories_v2\/food\/tearoom_","suffix":".png"},"primary":true}],"photos":{"count":0,"groups":[]},"venuePage":{"id":"89337655"}},"referralId":"e-5-53334a5d498e210026ea532c-3"},{"reasons":{"count":0,"items":[{"summary":"This spot is popular","type":"general","reasonName":"globalInteractionReason"}]},"venue":{"id":"5978ee479ad60e3a77a31812","name":"Papillon","location":{"address":"Royal Cafe Hotel","lat":51.5099516823897,"lng":-0.13621445184720038,"labeledLatLngs":[{"label":"display","lat":51.5099516823897,"lng":-0.13621445184720038}],"distance":174,"postalCode":"W1B","cc":"GB","city":"London","state":"Greater London","country":"United Kingdom","formattedAddress":["Royal Cafe Hotel","London","Greater London","W1B","United Kingdom"]},"categories":[{"id":"4bf58dd8d48988d16d941735","name":"Café","pluralName":"Cafés","shortName":"Café","icon":{"prefix":"https:\/\/ss3.4sqi.net\/img\/categories_v2\/food\/cafe_","suffix":".png"},"primary":true}],"photos":{"count":0,"groups":[]}},"referralId":"e-5-5978ee479ad60e3a77a31812-4"},{"reasons":{"count":0,"items":[{"summary":"This spot is popular","type":"general","reasonName":"globalInteractionReason"}]},"venue":{"id":"5d458d0468b7bc00086e9e89","name":"Hagen","location":{"address":"27-29 Swallow St","lat":51.509817,"lng":-0.137811,"labeledLatLngs":[{"label":"display","lat":51.509817,"lng":-0.137811}],"distance":285,"postalCode":"W1B 4DH","cc":"GB","city":"London","state":"Greater London","country":"United Kingdom","formattedAddress":["27-29 Swallow St","London","Greater London","W1B 4DH","United Kingdom"]},"categories":[{"id":"4bf58dd8d48988d1e0931735","name":"Coffee Shop","pluralName":"Coffee Shops","shortName":"Coffee Shop","icon":{"prefix":"https:\/\/ss3.4sqi.net\/img\/categories_v2\/food\/coffeeshop_","suffix":".png"},"primary":true}],"photos":{"count":0,"groups":[]}},"referralId":"e-5-5d458d0468b7bc00086e9e89-5"},{"reasons":{"count":0,"items":[{"summary":"This spot is popular","type":"general","reasonName":"globalInteractionReason"}]},"venue":{"id":"4ac518f2f964a5204fae20e3","name":"Minamoto Kitchoan Japanese Confectionary","location":{"address":"44 Piccadilly","lat":51.50875715019578,"lng":-0.13795443334594365,"labeledLatLngs":[{"label":"display","lat":51.50875715019578,"lng":-0.13795443334594365}],"distance":324,"postalCode":"W1J ODS","cc":"GB","city":"London","state":"Greater London","country":"United Kingdom","formattedAddress":["44 Piccadilly","St. James's","Greater London","W1J ODS","United Kingdom"]},"categories":[{"id":"4bf58dd8d48988d1d0941735","name":"Dessert Shop","pluralName":"Dessert Shops","shortName":"Desserts","icon":{"prefix":"https:\/\/ss3.4sqi.net\/img\/categories_v2\/food\/dessert_","suffix":".png"},"primary":true}],"photos":{"count":0,"groups":[]}},"referralId":"e-5-4ac518f2f964a5204fae20e3-6"},{"reasons":{"count":0,"items":[{"summary":"This spot is popular","type":"general","reasonName":"globalInteractionReason"}]},"venue":{"id":"59b24375fd16bb50bd2da152","name":"Crosstown Doughnuts","location":{"address":"35 Piccadilly","crossStreet":"Swallow St","lat":51.50903840285838,"lng":-0.1370082721251783,"labeledLatLngs":[{"label":"display","lat":51.50903840285838,"lng":-0.1370082721251783}],"distance":252,"postalCode":"W1J 0DW","cc":"GB","city":"Mayfair","state":"Greater London","country":"United Kingdom","formattedAddress":["35 Piccadilly (Swallow St)","Mayfair","Greater London","W1J 0DW","United Kingdom"]},"categories":[{"id":"4bf58dd8d48988d148941735","name":"Donut Shop","pluralName":"Donut Shops","shortName":"Donuts","icon":{"prefix":"https:\/\/ss3.4sqi.net\/img\/categories_v2\/food\/donuts_","suffix":".png"},"primary":true}],"photos":{"count":0,"groups":[]}},"referralId":"e-5-59b24375fd16bb50bd2da152-7"},{"reasons":{"count":0,"items":[{"summary":"This spot is popular","type":"general","reasonName":"globalInteractionReason"}]},"venue":{"id":"5bb75697531593002cc1688d","name":"Hide Away Coffee","location":{"address":"7 Smith's Ct","crossStreet":"Lexington St","lat":51.511401,"lng":-0.13532,"labeledLatLngs":[{"label":"display","lat":51.511401,"lng":-0.13532}],"distance":193,"postalCode":"W1F 9UJ","cc":"GB","city":"London","state":"Greater London","country":"United Kingdom","formattedAddress":["7 Smith's Ct (Lexington St)","London","Greater London","W1F 9UJ","United Kingdom"]},"categories":[{"id":"4bf58dd8d48988d16d941735","name":"Café","pluralName":"Cafés","shortName":"Café","icon":{"prefix":"https:\/\/ss3.4sqi.net\/img\/categories_v2\/food\/cafe_","suffix":".png"},"primary":true}],"photos":{"count":0,"groups":[]}},"referralId":"e-5-5bb75697531593002cc1688d-8"},{"reasons":{"count":0,"items":[{"summary":"This spot is popular","type":"general","reasonName":"globalInteractionReason"}]},"venue":{"id":"53203ab2498e6a5ca18513d8","name":"The Café at Café Royal Hotel","location":{"address":"68 Regent St","lat":51.50993807308417,"lng":-0.1361614765040046,"labeledLatLngs":[{"label":"display","lat":51.50993807308417,"lng":-0.1361614765040046}],"distance":170,"postalCode":"W1B 4DY","cc":"GB","city":"London","state":"Greater London","country":"United Kingdom","formattedAddress":["68 Regent St","London","Greater London","W1B 4DY","United Kingdom"]},"categories":[{"id":"4bf58dd8d48988d16d941735","name":"Café","pluralName":"Cafés","shortName":"Café","icon":{"prefix":"https:\/\/ss3.4sqi.net\/img\/categories_v2\/food\/cafe_","suffix":".png"},"primary":true}],"photos":{"count":0,"groups":[]}},"referralId":"e-5-53203ab2498e6a5ca18513d8-9"},{"reasons":{"count":0,"items":[{"summary":"This spot is popular","type":"general","reasonName":"globalInteractionReason"}]},"venue":{"id":"4fec52c4e4b00f39063b5bee","name":"Nespresso Boutique","location":{"address":"54 Regent St","lat":51.50999303119995,"lng":-0.13549172904083653,"labeledLatLngs":[{"label":"display","lat":51.50999303119995,"lng":-0.13549172904083653}],"distance":124,"postalCode":"W1B 4DY","cc":"GB","city":"London","state":"Greater London","country":"United Kingdom","formattedAddress":["54 Regent St","London","Greater London","W1B 4DY","United Kingdom"]},"categories":[{"id":"4bf58dd8d48988d1e0931735","name":"Coffee Shop","pluralName":"Coffee Shops","shortName":"Coffee Shop","icon":{"prefix":"https:\/\/ss3.4sqi.net\/img\/categories_v2\/food\/coffeeshop_","suffix":".png"},"primary":true}],"photos":{"count":0,"groups":[]}},"referralId":"e-5-4fec52c4e4b00f39063b5bee-10"},{"reasons":{"count":0,"items":[{"summary":"This spot is popular","type":"general","reasonName":"globalInteractionReason"}]},"venue":{"id":"4ea95d0b6d86765d4111781c","name":"Kahve Dunyasi","location":{"address":"200 Piccadilly Unit 3","lat":51.50925365838019,"lng":-0.13636260069397133,"labeledLatLngs":[{"label":"display","lat":51.50925365838019,"lng":-0.13636260069397133}],"distance":201,"postalCode":"W1J 9HU","cc":"GB","neighborhood":"Mayfair","city":"London","state":"Greater London","country":"United Kingdom","formattedAddress":["200 Piccadilly Unit 3","London","Greater London","W1J 9HU","United Kingdom"]},"categories":[{"id":"4bf58dd8d48988d1e0931735","name":"Coffee Shop","pluralName":"Coffee Shops","shortName":"Coffee Shop","icon":{"prefix":"https:\/\/ss3.4sqi.net\/img\/categories_v2\/food\/coffeeshop_","suffix":".png"},"primary":true}],"photos":{"count":0,"groups":[]}},"referralId":"e-5-4ea95d0b6d86765d4111781c-11"},{"reasons":{"count":0,"items":[{"summary":"This spot is popular","type":"general","reasonName":"globalInteractionReason"}]},"venue":{"id":"4b044246f964a520a15222e3","name":"Amorino","location":{"address":"41 Old Compton St","crossStreet":"Dean St","lat":51.5128681494808,"lng":-0.13216098124942802,"labeledLatLngs":[{"label":"display","lat":51.5128681494808,"lng":-0.13216098124942802}],"distance":338,"postalCode":"W1D 6HF","cc":"GB","neighborhood":"Soho, London, Greater London","city":"Soho","state":"Greater London","country":"United Kingdom","formattedAddress":["41 Old Compton St (Dean St)","Soho","Greater London","W1D 6HF","United Kingdom"]},"categories":[{"id":"4bf58dd8d48988d1c9941735","name":"Ice Cream Shop","pluralName":"Ice Cream Shops","shortName":"Ice Cream","icon":{"prefix":"https:\/\/ss3.4sqi.net\/img\/categories_v2\/food\/icecream_","suffix":".png"},"primary":true}],"photos":{"count":0,"groups":[]}},"referralId":"e-5-4b044246f964a520a15222e3-12"},{"reasons":{"count":0,"items":[{"summary":"This spot is popular","type":"general","reasonName":"globalInteractionReason"}]},"venue":{"id":"4ac518ecf964a52075ac20e3","name":"Fortnum & Mason","location":{"address":"181 Piccadilly","lat":51.508362908835586,"lng":-0.13866698492205912,"labeledLatLngs":[{"label":"display","lat":51.508362908835586,"lng":-0.13866698492205912}],"distance":388,"postalCode":"W1A 1ER","cc":"GB","city":"London","state":"Greater London","country":"United Kingdom","formattedAddress":["181 Piccadilly","St. James's","Greater London","W1A 1ER","United Kingdom"]},"categories":[{"id":"4bf58dd8d48988d1f6941735","name":"Department Store","pluralName":"Department Stores","shortName":"Department Store","icon":{"prefix":"https:\/\/ss3.4sqi.net\/img\/categories_v2\/shops\/departmentstore_","suffix":".png"},"primary":true}],"photos":{"count":0,"groups":[]}},"referralId":"e-5-4ac518ecf964a52075ac20e3-13"},{"reasons":{"count":0,"items":[{"summary":"This spot is popular","type":"general","reasonName":"globalInteractionReason"}]},"venue":{"id":"4aeebda6f964a52038d421e3","name":"Algerian Coffee Stores","location":{"address":"52 Old Compton St","lat":51.51286473760223,"lng":-0.132083758630985,"labeledLatLngs":[{"label":"display","lat":51.51286473760223,"lng":-0.132083758630985}],"distance":340,"postalCode":"W1D 4PB","cc":"GB","city":"London","state":"Greater London","country":"United Kingdom","formattedAddress":["52 Old Compton St","London","Greater London","W1D 4PB","United Kingdom"]},"categories":[{"id":"4bf58dd8d48988d1e0931735","name":"Coffee Shop","pluralName":"Coffee Shops","shortName":"Coffee Shop","icon":{"prefix":"https:\/\/ss3.4sqi.net\/img\/categories_v2\/food\/coffeeshop_","suffix":".png"},"primary":true}],"photos":{"count":0,"groups":[]}},"referralId":"e-5-4aeebda6f964a52038d421e3-14"},{"reasons":{"count":0,"items":[{"summary":"This spot is popular","type":"general","reasonName":"globalInteractionReason"}]},"venue":{"id":"556dbb4e498e650bbae50bc0","name":"Thomas's at Burberry Regent Street","location":{"address":"5 Vigo Street","lat":51.51036841960104,"lng":-0.13898134231567383,"labeledLatLngs":[{"label":"display","lat":51.51036841960104,"lng":-0.13898134231567383}],"distance":368,"postalCode":"W1S 3HA","cc":"GB","neighborhood":"Mayfair","city":"London","state":"Greater London","country":"United Kingdom","formattedAddress":["5 Vigo Street","London","Greater London","W1S 3HA","United Kingdom"]},"categories":[{"id":"4bf58dd8d48988d16d941735","name":"Café","pluralName":"Cafés","shortName":"Café","icon":{"prefix":"https:\/\/ss3.4sqi.net\/img\/categories_v2\/food\/cafe_","suffix":".png"},"primary":true}],"photos":{"count":0,"groups":[]}},"referralId":"e-5-556dbb4e498e650bbae50bc0-15"},{"reasons":{"count":0,"items":[{"summary":"This spot is popular","type":"general","reasonName":"globalInteractionReason"}]},"venue":{"id":"50014cc4e4b077d34fa70dd7","name":"Blade Soho","location":{"address":"26 Frith St","lat":51.51301199563546,"lng":-0.1310589564686742,"labeledLatLngs":[{"label":"display","lat":51.51301199563546,"lng":-0.1310589564686742}],"distance":383,"postalCode":"W1D 5LD","cc":"GB","city":"Soho","state":"Greater London","country":"United Kingdom","formattedAddress":["26 Frith St","Soho","Greater London","W1D 5LD","United Kingdom"]},"categories":[{"id":"4bf58dd8d48988d110951735","name":"Salon \/ Barbershop","pluralName":"Salons \/ Barbershops","shortName":"Salon \/ Barbershop","icon":{"prefix":"https:\/\/ss3.4sqi.net\/img\/categories_v2\/shops\/salon_barber_","suffix":".png"},"primary":true}],"photos":{"count":0,"groups":[]},"venuePage":{"id":"89615258"}},"referralId":"e-5-50014cc4e4b077d34fa70dd7-16"},{"reasons":{"count":0,"items":[{"summary":"This spot is popular","type":"general","reasonName":"globalInteractionReason"}]},"venue":{"id":"4fd4bdd5e4b0052fbc13a808","name":"Diamond Jubilee Tea Salon","location":{"address":"181 Piccadilly","crossStreet":"Fortnum & Mason","lat":51.50818280532083,"lng":-0.13847303307163822,"labeledLatLngs":[{"label":"display","lat":51.50818280532083,"lng":-0.13847303307163822}],"distance":386,"postalCode":"W1J 9EH","cc":"GB","city":"London","state":"Greater London","country":"United Kingdom","formattedAddress":["181 Piccadilly (Fortnum & Mason)","London","Greater London","W1J 9EH","United Kingdom"]},"categories":[{"id":"4bf58dd8d48988d1dc931735","name":"Tea Room","pluralName":"Tea Rooms","shortName":"Tea Room","icon":{"prefix":"https:\/\/ss3.4sqi.net\/img\/categories_v2\/food\/tearoom_","suffix":".png"},"primary":true}],"photos":{"count":0,"groups":[]}},"referralId":"e-5-4fd4bdd5e4b0052fbc13a808-17"},{"reasons":{"count":0,"items":[{"summary":"This spot is popular","type":"general","reasonName":"globalInteractionReason"}]},"venue":{"id":"4f4d0b93e4b0f9202431fca0","name":"The Rose Lounge","location":{"address":"at Sofitel London St James","crossStreet":"6 Waterloo Pl","lat":51.50749082672349,"lng":-0.13257351696369804,"labeledLatLngs":[{"label":"display","lat":51.50749082672349,"lng":-0.13257351696369804}],"distance":287,"postalCode":"SW1Y 4AN","cc":"GB","city":"London","state":"Greater London","country":"United Kingdom","formattedAddress":["at Sofitel London St James (6 Waterloo Pl)","London","Greater London","SW1Y 4AN","United Kingdom"]},"categories":[{"id":"4bf58dd8d48988d1dc931735","name":"Tea Room","pluralName":"Tea Rooms","shortName":"Tea Room","icon":{"prefix":"https:\/\/ss3.4sqi.net\/img\/categories_v2\/food\/tearoom_","suffix":".png"},"primary":true}],"photos":{"count":0,"groups":[]}},"referralId":"e-5-4f4d0b93e4b0f9202431fca0-18"},{"reasons":{"count":0,"items":[{"summary":"This spot is popular","type":"general","reasonName":"globalInteractionReason"}]},"venue":{"id":"4bfc18741be376b00b29f8b4","name":"Whittard of Chelsea","location":{"address":"65 Regent St","lat":51.51008687664073,"lng":-0.1362829787376603,"labeledLatLngs":[{"label":"display","lat":51.51008687664073,"lng":-0.1362829787376603}],"distance":179,"postalCode":"W1B 4DE","cc":"GB","city":"London","state":"Greater London","country":"United Kingdom","formattedAddress":["65 Regent St","London","Greater London","W1B 4DE","United Kingdom"]},"categories":[{"id":"4bf58dd8d48988d1dc931735","name":"Tea Room","pluralName":"Tea Rooms","shortName":"Tea Room","icon":{"prefix":"https:\/\/ss3.4sqi.net\/img\/categories_v2\/food\/tearoom_","suffix":".png"},"primary":true}],"photos":{"count":0,"groups":[]}},"referralId":"e-5-4bfc18741be376b00b29f8b4-19"},{"reasons":{"count":0,"items":[{"summary":"This spot is popular","type":"general","reasonName":"globalInteractionReason"}]},"venue":{"id":"5470ccf6498ea81c5ed9a95b","name":"Whittard of Chelsea","location":{"address":"13 Regent St St James","lat":51.50871669557982,"lng":-0.13377947841166626,"labeledLatLngs":[{"label":"display","lat":51.50871669557982,"lng":-0.13377947841166626}],"distance":140,"postalCode":"SW1Y 4LR","cc":"GB","city":"London","state":"Greater London","country":"United Kingdom","formattedAddress":["13 Regent St St James","London","Greater London","SW1Y 4LR","United Kingdom"]},"categories":[{"id":"4bf58dd8d48988d1dc931735","name":"Tea Room","pluralName":"Tea Rooms","shortName":"Tea Room","icon":{"prefix":"https:\/\/ss3.4sqi.net\/img\/categories_v2\/food\/tearoom_","suffix":".png"},"primary":true}],"photos":{"count":0,"groups":[]}},"referralId":"e-5-5470ccf6498ea81c5ed9a95b-20"},{"reasons":{"count":0,"items":[{"summary":"This spot is popular","type":"general","reasonName":"globalInteractionReason"}]},"venue":{"id":"5d569b5b32b9dd0008529847","name":"Bafarat","location":{"address":"6 Warwick St","lat":51.510816,"lng":-0.137552,"labeledLatLngs":[{"label":"display","lat":51.510816,"lng":-0.137552}],"distance":282,"postalCode":"W1B 5LU","cc":"GB","city":"London","state":"Greater London","country":"United Kingdom","formattedAddress":["6 Warwick St","London","Greater London","W1B 5LU","United Kingdom"]},"categories":[{"id":"4bf58dd8d48988d1e0931735","name":"Coffee Shop","pluralName":"Coffee Shops","shortName":"Coffee Shop","icon":{"prefix":"https:\/\/ss3.4sqi.net\/img\/categories_v2\/food\/coffeeshop_","suffix":".png"},"primary":true}],"photos":{"count":0,"groups":[]}},"referralId":"e-5-5d569b5b32b9dd0008529847-21"},{"reasons":{"count":0,"items":[{"summary":"This spot is popular","type":"general","reasonName":"globalInteractionReason"}]},"venue":{"id":"524fe77011d21928769778ad","name":"Keeper's House","location":{"address":"50-52 Piccadilly","lat":51.50894976839013,"lng":-0.13929329814114172,"labeledLatLngs":[{"label":"display","lat":51.50894976839013,"lng":-0.13929329814114172}],"distance":404,"postalCode":"W1J 0BD","cc":"GB","city":"Piccadilly","state":"Greater London","country":"United Kingdom","formattedAddress":["50-52 Piccadilly","Piccadilly","Greater London","W1J 0BD","United Kingdom"]},"categories":[{"id":"4bf58dd8d48988d1e2931735","name":"Art Gallery","pluralName":"Art Galleries","shortName":"Art Gallery","icon":{"prefix":"https:\/\/ss3.4sqi.net\/img\/categories_v2\/arts_entertainment\/artgallery_","suffix":".png"},"primary":true}],"photos":{"count":0,"groups":[]}},"referralId":"e-5-524fe77011d21928769778ad-22"},{"reasons":{"count":0,"items":[{"summary":"This spot is popular","type":"general","reasonName":"globalInteractionReason"}]},"venue":{"id":"5287c4b511d2f74757d02e92","name":"SAID dal 1923 Antica Fabbrica del Cioccolato Roma","location":{"address":"41 Broadwick St","lat":51.51333056311977,"lng":-0.13674176835423602,"labeledLatLngs":[{"label":"display","lat":51.51333056311977,"lng":-0.13674176835423602}],"distance":428,"postalCode":"W1F 9QL","cc":"GB","city":"London","state":"Greater London","country":"United Kingdom","formattedAddress":["41 Broadwick St","London","Greater London","W1F 9QL","United Kingdom"]},"categories":[{"id":"52f2ab2ebcbc57f1066b8b31","name":"Chocolate Shop","pluralName":"Chocolate Shops","shortName":"Chocolate Shop","icon":{"prefix":"https:\/\/ss3.4sqi.net\/img\/categories_v2\/shops\/candystore_","suffix":".png"},"primary":true}],"photos":{"count":0,"groups":[]}},"referralId":"e-5-5287c4b511d2f74757d02e92-23"},{"reasons":{"count":0,"items":[{"summary":"This spot is popular","type":"general","reasonName":"globalInteractionReason"}]},"venue":{"id":"4ad9d870f964a520331b21e3","name":"Nordic Bakery","location":{"address":"14A Golden Sq","lat":51.51141,"lng":-0.136864,"labeledLatLngs":[{"label":"display","lat":51.51141,"lng":-0.136864}],"distance":270,"postalCode":"W1F 9JG","cc":"GB","city":"Soho","state":"Greater London","country":"United Kingdom","formattedAddress":["14A Golden Sq","Soho","Greater London","W1F 9JG","United Kingdom"]},"categories":[{"id":"4bf58dd8d48988d16d941735","name":"Café","pluralName":"Cafés","shortName":"Café","icon":{"prefix":"https:\/\/ss3.4sqi.net\/img\/categories_v2\/food\/cafe_","suffix":".png"},"primary":true}],"photos":{"count":0,"groups":[]}},"referralId":"e-5-4ad9d870f964a520331b21e3-24"},{"reasons":{"count":0,"items":[{"summary":"This spot is popular","type":"general","reasonName":"globalInteractionReason"}]},"venue":{"id":"4baa0778f964a520ff443ae3","name":"Piggys Piccadilly","location":{"address":"1 Air St","lat":51.50956508763325,"lng":-0.13589078455984163,"labeledLatLngs":[{"label":"display","lat":51.50956508763325,"lng":-0.13589078455984163}],"distance":158,"postalCode":"W1J","cc":"GB","city":"London","state":"Greater London","country":"United Kingdom","formattedAddress":["1 Air St","London","Greater London"," W1J","United Kingdom"]},"categories":[{"id":"4bf58dd8d48988d16d941735","name":"Café","pluralName":"Cafés","shortName":"Café","icon":{"prefix":"https:\/\/ss3.4sqi.net\/img\/categories_v2\/food\/cafe_","suffix":".png"},"primary":true}],"photos":{"count":0,"groups":[]}},"referralId":"e-5-4baa0778f964a520ff443ae3-25"},{"reasons":{"count":0,"items":[{"summary":"This spot is popular","type":"general","reasonName":"globalInteractionReason"}]},"venue":{"id":"54a7fbca498e5bb40ab15659","name":"My Place","location":{"address":"21 Berwick St","lat":51.51372739121832,"lng":-0.1351117544606975,"labeledLatLngs":[{"label":"display","lat":51.51372739121832,"lng":-0.1351117544606975}],"distance":428,"postalCode":"W1F 0PZ","cc":"GB","neighborhood":"Soho, London, Greater London","city":"Soho","state":"Greater London","country":"United Kingdom","formattedAddress":["21 Berwick St","Soho","Greater London","W1F 0PZ","United Kingdom"]},"categories":[{"id":"4bf58dd8d48988d16d941735","name":"Café","pluralName":"Cafés","shortName":"Café","icon":{"prefix":"https:\/\/ss3.4sqi.net\/img\/categories_v2\/food\/cafe_","suffix":".png"},"primary":true}],"photos":{"count":0,"groups":[]}},"referralId":"e-5-54a7fbca498e5bb40ab15659-26"},{"reasons":{"count":0,"items":[{"summary":"This spot is popular","type":"general","reasonName":"globalInteractionReason"}]},"venue":{"id":"5759ad9d498ead2a5216530e","name":"Café W Piccadilly","location":{"address":"203-206 Piccadilly","lat":51.50905309264518,"lng":-0.13593626113005952,"labeledLatLngs":[{"label":"display","lat":51.50905309264518,"lng":-0.13593626113005952}],"distance":186,"postalCode":"W1J 9HD","cc":"GB","city":"London","state":"Greater London","country":"United Kingdom","formattedAddress":["203-206 Piccadilly","London","Greater London","W1J 9HD","United Kingdom"]},"categories":[{"id":"4bf58dd8d48988d16d941735","name":"Café","pluralName":"Cafés","shortName":"Café","icon":{"prefix":"https:\/\/ss3.4sqi.net\/img\/categories_v2\/food\/cafe_","suffix":".png"},"primary":true}],"photos":{"count":0,"groups":[]}},"referralId":"e-5-5759ad9d498ead2a5216530e-27"},{"reasons":{"count":0,"items":[{"summary":"This spot is popular","type":"general","reasonName":"globalInteractionReason"}]},"venue":{"id":"4ed619be0cd6b3fd4c41cff4","name":"Ceviche Soho","location":{"address":"17 Frith St.","lat":51.5137,"lng":-0.131546,"labeledLatLngs":[{"label":"display","lat":51.5137,"lng":-0.131546}],"distance":440,"postalCode":"W1D 4RG","cc":"GB","city":"London","state":"Greater London","country":"United Kingdom","formattedAddress":["17 Frith St.","London","Greater London","W1D 4RG","United Kingdom"]},"categories":[{"id":"4eb1bfa43b7b52c0e1adc2e8","name":"Peruvian Restaurant","pluralName":"Peruvian Restaurants","shortName":"Peruvian","icon":{"prefix":"https:\/\/ss3.4sqi.net\/img\/categories_v2\/food\/peruvian_","suffix":".png"},"primary":true}],"photos":{"count":0,"groups":[]},"venuePage":{"id":"33847526"}},"referralId":"e-5-4ed619be0cd6b3fd4c41cff4-28"},{"reasons":{"count":0,"items":[{"summary":"This spot is popular","type":"general","reasonName":"globalInteractionReason"}]},"venue":{"id":"4c13b86177cea593c844cf60","name":"The Parlour","location":{"address":"181 Piccadilly","lat":51.50855094535193,"lng":-0.1385156955963612,"labeledLatLngs":[{"label":"display","lat":51.50855094535193,"lng":-0.1385156955963612}],"distance":369,"postalCode":"W1A 1ER","cc":"GB","city":"London","state":"Greater London","country":"United Kingdom","formattedAddress":["181 Piccadilly","St. James's","Greater London","W1A 1ER","United Kingdom"]},"categories":[{"id":"4bf58dd8d48988d1dc931735","name":"Tea Room","pluralName":"Tea Rooms","shortName":"Tea Room","icon":{"prefix":"https:\/\/ss3.4sqi.net\/img\/categories_v2\/food\/tearoom_","suffix":".png"},"primary":true}],"photos":{"count":0,"groups":[]}},"referralId":"e-5-4c13b86177cea593c844cf60-29"}]}]}}